ID;LongE;OBJECTID;RIFMAZ;NUM;DENOM;TIPO;AMSTOR;CONS;"note2";loc_stor;foto_web;CONSIT;PROAT;ico_torri;"OBJECTID_12";"OBJECTID_1";Località;Provincia;Comune;longitude;latitude;PRO_COM_T;data_caricamento
"3";"13.3262125587";"1";NULL;"3";Mondello;"Torre della tonnara";ecclesiastico;E;"Torre della tonnara.";"Val di Mazara";"http://gis.osservatorioturistico.sicilia.it/doc/foto/torri/Mondello_PA.jpg";discreto;privata;"http://gis.osservatorioturistico.sicilia.it/doc/foto/torri/ico/ico_Mondello_PA.jpg";"1";"1";"Via Torre di Mondello";PA;Palermo;"13.326212558705546";"38.206500878114560";NULL;"1587553704"
"4";"13.3687713188";"2";"4";"4";"Vergine Maria";"Torre della tonnara";privati;E;NULL;"Val di Mazara";"http://gis.osservatorioturistico.sicilia.it/doc/foto/torri/Vergine_Maria_PA.jpg";discreto;privata;"http://gis.osservatorioturistico.sicilia.it/doc/foto/torri/ico/ico_Vergine_Maria_PA.jpg";"2";"2";"Porticciolo Vergine Maria";PA;Palermo;"13.368771318824342";"38.166003635985360";"082053";"1587553704"
"5";"13.3662231746";"3";"5";"5";Rotolo;Torre;incerta;E;NULL;"Val di Mazara";"http://gis.osservatorioturistico.sicilia.it/doc/foto/torri/Rotolo_PA.jpg";mediocre;pubblica;"http://gis.osservatorioturistico.sicilia.it/doc/foto/torri/ico/ico_Rotolo_PA.jpg";"3";"3";"Lungomare Cristoforo Colombo";PA;Palermo;"13.366223174562961";"38.179027164169330";"082053";"1587553704"
"6";"13.3420445245";"4";"6";"6";Addaura;Torre;privati;E;NULL;"Val di Mazara";"http://gis.osservatorioturistico.sicilia.it/doc/foto/torri/Addaura_PA.jpg";ottimo;privata;"http://gis.osservatorioturistico.sicilia.it/doc/foto/torri/ico/ico_Addaura_PA.jpg";"4";"4";Addaura;PA;Palermo;"13.342044524525031";"38.189676848695810";"082053";"1587553704"
"8";"13.3300189164";"5";"8";"8";"Mondello o del Fico d'India";Torre;deputazione;E;"All'interno dell'hotel La Torre.";"Val di Mazara";"http://gis.osservatorioturistico.sicilia.it/doc/foto/torri/Torre_del_Fico_D'India_PA.jpg";discreto;privata;"http://gis.osservatorioturistico.sicilia.it/doc/foto/torri/ico/ico_Fico_d'India_PA.jpg";"5";"5";Mondello;PA;Palermo;"13.330018916433112";"38.211905904008030";"082053";"1587553704"
"10";"13.3030021896";"6";"10";"10";"Amari o Dammuso di Gallo";Torre;deputazione;E;NULL;"Val di Mazara";"http://gis.osservatorioturistico.sicilia.it/doc/foto/torri/Amari_PA.jpg";discreto;privata;"http://gis.osservatorioturistico.sicilia.it/doc/foto/torri/ico/ico_Amari_PA.jpg";"6";"6";Pizzosella;PA;Palermo;"13.303002189555528";"38.217725031660710";"082053";"1587553704"
"13";"13.2449747965";"7";"12";"13";"Isola delle Femmine in Terra";Torre;deputazione;E;"Torre in terra di Isola delle Femmine; torre di Capaci. Visitabile al pubblico.";"Val di Mazara";"http://gis.osservatorioturistico.sicilia.it/doc/foto/torri/Isola_Femmine_Terra_PA.jpg";ottimo;pubblica;"http://gis.osservatorioturistico.sicilia.it/doc/foto/torri/ico/ico_Isola_Femm_Terra_PA.jpg";"7";"7";"Punta del Passaggio";PA;"Isola delle Femmine";"13.244974796532283";"38.201829769986624";"082043";"1587553704"
"14";"13.2353791700";"8";"13";"14";"Isola delle Femmine di Fuori";Torre;deputazione;E;"Torre di Isola in mare. All'interno della RNO di Isola delle Femmine.";"Val di Mazara";"http://gis.osservatorioturistico.sicilia.it/doc/foto/torri/Isola_delle_Femmine_PA.jpg";pessimo;privata;"http://gis.osservatorioturistico.sicilia.it/doc/foto/torri/ico/ico_Isola_delle_Femmine_PA.jpg";"8";"8";"Isola di fuori";PA;"Isola delle Femmine";"13.235379169997755";"38.211402047652385";"082043";"1587553704"
"15";"13.2218815829";"9";"14";"15";Ciachea;Torre;privati;E;NULL;"Val di Mazara";"http://gis.osservatorioturistico.sicilia.it/doc/foto/torri/Ciachea_PA.jpg";buono;privata;"http://gis.osservatorioturistico.sicilia.it/doc/foto/torri/ico/ico_Ciachea_PA.jpg";"9";"9";"Villa Ciachea";PA;Carini;"13.221881582870353";"38.173857795846050";"082021";"1587553704"
"16";"13.1849311926";"10";"15";"16";Milioti;Torre;privati;E;NULL;"Val di Mazara";"http://gis.osservatorioturistico.sicilia.it/doc/foto/torri/Milioti_PA.jpg";buono;privata;"http://gis.osservatorioturistico.sicilia.it/doc/foto/torri/ico/ico_Milioti_PA.jpg";"10";"10";"Villagrazia di Carini";PA;Carini;"13.184931192615375";"38.165506705644120";"082021";"1587553704"
"17";"13.1612294003";"11";"16";"17";Carini;"Torre della tonnara";privati;E;NULL;"Val di Mazara";"http://gis.osservatorioturistico.sicilia.it/doc/foto/torri/Carini_PA.jpg";mediocre;privata;"http://gis.osservatorioturistico.sicilia.it/doc/foto/torri/ico/ico_Tonnara_Carini_PA.jpg";"11";"11";"Baglio di Carini";PA;Carini;"13.161229400326963";"38.177127039611904";"082021";"1587553704"
"18";"13.1600528102";"12";"17";"18";Muzza;Torre;incerta;E;NULL;"Val di Mazara";"http://gis.osservatorioturistico.sicilia.it/doc/foto/torri/Muzza_PA.jpg";pessimo;privata;"http://gis.osservatorioturistico.sicilia.it/doc/foto/torri/ico/ico_Muzza_PA.jpg";"12";"12";Piraineto;PA;Carini;"13.160052810225375";"38.185251197919996";"082021";"1587553704"
"19";"13.1401148980";"13";"18";"19";Pozzillo;Torre;deputazione;E;NULL;"Val di Mazara";"http://gis.osservatorioturistico.sicilia.it/doc/foto/torri/Pozzillo_PA.jpg";discreto;pubblica;"http://gis.osservatorioturistico.sicilia.it/doc/foto/torri/ico/ico_Pozzillo_PA.jpg";"13";"13";"Marina di Cinisi";PA;Cinisi;"13.140114897992260";"38.184035795190480";"082031";"1587553704"
"20";"13.1235490790";"14";"19";"20";Orsa;"Torre della tonnara";ecclesiastico;E;NULL;"Val di Mazara";"http://gis.osservatorioturistico.sicilia.it/doc/foto/torri/Orsa_PA.jpg";ottima;pubblica;"http://gis.osservatorioturistico.sicilia.it/doc/foto/torri/ico/ico_Orsa_PA.jpg";"14";"14";"Fonda Orsa";PA;Cinisi;"13.123549079025084";"38.191125507524240";"082031";"1587553704"
"21";"13.0774380461";"15";"20";"21";Molinazzo;Torre;deputazione;E;NULL;"Val di Mazara";"http://gis.osservatorioturistico.sicilia.it/doc/foto/torri/Molinazzo_PA.jpg";mediocre;pubblica;"http://gis.osservatorioturistico.sicilia.it/doc/foto/torri/ico/ico_Molinazzo_PA.jpg";"15";"15";"Punta del Molinazzo";PA;Cinisi;"13.077438046095896";"38.170923466146085";"082031";"1587553704"
"22";"13.0724460119";"16";"21";"22";Alba;Torre;deputazione;E;NULL;"Val di Mazara";"http://gis.osservatorioturistico.sicilia.it/doc/foto/torri/Alba_PA.jpg";buono;pubblica;"http://gis.osservatorioturistico.sicilia.it/doc/foto/torri/ico/ico_Alba_PA.jpg";"16";"16";Calarossa;PA;Terrasini;"13.072446011854103";"38.151607278204840";"082071";"1587553704"
"23";"13.0527238361";"17";"22-23";"23";"Capo Rama";Torre;deputazione;E;NULL;"Val di Mazara";"http://gis.osservatorioturistico.sicilia.it/doc/foto/torri/Capo_Rama_PA.jpg";cattivo;pubblica;"http://gis.osservatorioturistico.sicilia.it/doc/foto/torri/ico/ico_Capo_Rama_PA.jpg";"17";"17";"Capo Rama";PA;Terrasini;"13.052723836065113";"38.138475835524915";"082071";"1587553704"
"24";"13.0688287607";"18";"24";"24";"Toleda o Paternella";Torre;deputazione;E;NULL;"Val di Mazara";"http://gis.osservatorioturistico.sicilia.it/doc/foto/torri/Toleda_Paternella_PA.jpg";cattivo;privata;"http://gis.osservatorioturistico.sicilia.it/doc/foto/torri/ico/ico_Toleda_Paternella_PA.jpg";"18";"18";"Contrada Paternella";PA;Terrasini;"13.068828760730090";"38.117876858428090";"082071";"1587553704"
"26";"13.0722064448";"19";"27";"26";"Re/Belvedere/Cerasella";Torre;privati;E;NULL;"Val di Mazara";"http://gis.osservatorioturistico.sicilia.it/doc/foto/torri/RE_PA.jpg";cattivo;privata;"http://gis.osservatorioturistico.sicilia.it/doc/foto/torri/ico/ico_Re_PA.jpg";"19";"19";"Via Torre Belvedere";PA;Partinico;"13.072206444800555";"38.072628025874290";"082054";"1587553704"
"29";"12.8376088646";"21";"31";"29";Guidaloca;Torre;deputazione;E;NULL;"Val di Mazara";"http://gis.osservatorioturistico.sicilia.it/doc/foto/torri/Guidaloca_TP.jpg";discreto;privata;"http://gis.osservatorioturistico.sicilia.it/doc/foto/torri/ico/ico_Guidaloca_TP.jpg";"20";"20";Guidaloca;TP;"Castellammare del Golfo";"12.837608864622570";"38.057983159750850";"081005";"1587553704"
"30";"12.8215478928";"22";"32";"30";"Scopello/Doria";Torre;deputazione;E;NULL;"Val di Mazara";"http://gis.osservatorioturistico.sicilia.it/doc/foto/torri/Scopello_TP.jpg";ottimo;privata;"http://gis.osservatorioturistico.sicilia.it/doc/foto/torri/ico/ico_Scopello_TP.jpg";"21";"21";Scopello;TP;"Castellammare del Golfo";"12.821547892791097";"38.073117303801830";"081005";"1587553704"
"33";"12.7891090949";"24";"35";"33";Uzzo;Torre;privati;E;NULL;"Val di Mazara";"http://gis.osservatorioturistico.sicilia.it/doc/foto/torri/Uzzo_TP.jpg";pessimo;pubblica;"http://gis.osservatorioturistico.sicilia.it/doc/foto/torri/ico/ico_Uzzo_TP.jpg";"22";"22";"Tonnarella dell'Uzzo";TP;"San Vito";"12.789109094896453";"38.110943604038360";"081020";"1587553704"
"34";"12.7885382148";"25";"36";"34";"'Mpiso o Azzolino";Torre;deputazione;E;NULL;"Val di Mazara";"http://gis.osservatorioturistico.sicilia.it/doc/foto/torri/Impiso_TP.jpg";ottimo;pubblica;"http://gis.osservatorioturistico.sicilia.it/doc/foto/torri/ico/ico_Impiso_TP.jpg";"23";"23";"Promontorio San Vito";TP;"San Vito";"12.788538214841696";"38.134982361364060";"081020";"1587553704"
"35";"12.7708321278";"26";"37";"35";Scieri;Torre;deputazione;E;NULL;"Val di Mazara";"http://gis.osservatorioturistico.sicilia.it/doc/foto/torri/Scieri_TP.jpg";pessimo;pubblica;"http://gis.osservatorioturistico.sicilia.it/doc/foto/torri/ico/ico_Scieri_TP.jpg";"24";"24";"Golfo di Castellammare";TP;"San Vito";"12.770832127767445";"38.175016299426690";"081020";"1587553704"
"36";"12.7340761378";"27";"38";"36";"San Vito (Santuario)";Torre;ecclesiastico;E;NULL;"Val di Mazara";"http://gis.osservatorioturistico.sicilia.it/doc/foto/torri/San_Vito_Santuario_TP.jpg";ottimo;"pubb.eccles.";"http://gis.osservatorioturistico.sicilia.it/doc/foto/torri/ico/ico_San_Vito_Santuario_TP.jpg";"25";"25";"Piazza Santuario";TP;"San Vito";"12.734076137791783";"38.176114440766290";"081020";"1587553704"
"37";"12.7305860467";"28";"39";"37";"San Vito";Torrazzo;privati;E;"Torrazzo.";"Val di Mazara";"http://gis.osservatorioturistico.sicilia.it/doc/foto/torri/San_Vito_Torrazzo_TP.jpg";buono;pubblica;"http://gis.osservatorioturistico.sicilia.it/doc/foto/torri/ico/ico_San_Vito_Torrazzo_TP.jpg";"26";"26";"Via Faro";TP;"San Vito";"12.730586046733587";"38.181895086779090";"081020";"1587553704"
"39";"12.7354665940";"29";"40";"39";Isolidda;Torre;deputazione;E;"Torre del Poggio dei Monaci.";"Val di Mazara";"http://gis.osservatorioturistico.sicilia.it/doc/foto/torri/Isolidda_TP.jpg";ottimo;pubblica;"http://gis.osservatorioturistico.sicilia.it/doc/foto/torri/ico/ico_Isolidda_TP.jpg";"27";"27";"Golfo di Cofano";TP;"San Vito";"12.735466593989957";"38.146657541783260";"081020";"1587553704"
"41";"12.6800752096";"30";NULL;"41";"Tonnara di Cofano";"Torre della tonnara";privati;E;NULL;"Val di Mazara";"http://gis.osservatorioturistico.sicilia.it/doc/foto/torri/Tonnara di Cofano_TP.JPG";discreto;pubblica;"http://gis.osservatorioturistico.sicilia.it/doc/foto/torri/ico/ico_Tonnara di Cofano_TP.JPG";"28";"28";"Tonnara di Cofano";TP;Custonaci;"12.680075209641569";"38.111623794148710";"081007";"1587553704"
"44";"12.6283245531";"32";"43";"44";"Sciare o Guddia";Torre;privati;E;"Torre le Sciare; torre Guddia o Cuddia; torre Cortigliolo.";"Val di Mazara";"http://gis.osservatorioturistico.sicilia.it/doc/foto/torri/Sciare_Guddia_TP.jpg";mediocre;privata;"http://gis.osservatorioturistico.sicilia.it/doc/foto/torri/ico/ico_Sciare_Guddia_TP.jpg";"29";"29";"Lido Valderice";TP;Valderice;"12.628324553087399";"38.066383813059474";"081022";"1587553704"
"45";"12.5951088325";"33";"44";"45";Bonagia;"Torre della tonnara";NULL;E;NULL;"Val di Mazara";"http://gis.osservatorioturistico.sicilia.it/doc/foto/torri/Bonagia_TP.jpg";ottimo;privata;"http://gis.osservatorioturistico.sicilia.it/doc/foto/torri/ico/ico_Bonagia_TP.jpg";"30";"30";"Tonnara di Bonagia";TP;Valderice;"12.595108832523593";"38.067363134222234";"081022";"1587553704"
"47";"12.5630444944";"35";"46";"47";Pizzolungo;Torre;NULL;E;NULL;"Val di Mazara";"http://gis.osservatorioturistico.sicilia.it/doc/foto/torri/Pizzolungo_TP.jpg";pessimo;privata;"http://gis.osservatorioturistico.sicilia.it/doc/foto/torri/ico/ico_Pizzolungo_TP.jpg";"31";"31";Pizzolungo;TP;Erice;"12.563044494403506";"38.052460180568080";"081008";"1587553704"
"48";"12.5537190329";"36";"47";"48";Martognella;Torre;NULL;E;NULL;"Val di Mazara";"http://gis.osservatorioturistico.sicilia.it/doc/foto/torri/Martognella_TP.jpg";discreto;privata;"http://gis.osservatorioturistico.sicilia.it/doc/foto/torri/ico/ico_Martognella_TP.jpg";"32";"32";"Contrada Martogna";TP;Erice;"12.553719032853100";"38.044413897075120";"081008";"1587553704"
"51";"12.5267919763";"37";NULL;"51";"San Giuliano";"Torre della tonnara";NULL;E;NULL;"Val di Mazara";"http://gis.osservatorioturistico.sicilia.it/doc/foto/torri/San_Giuliano_TP.jpg";pessimo;privata;"http://gis.osservatorioturistico.sicilia.it/doc/foto/torri/ico/ico_San_Giuliano_TP.jpg";"33";"33";"Tonnara di san Giuliano";TP;Trapani;"12.526791976288260";"38.033285131689034";"081021";"1587553704"
"52";"12.4969764442";"38";"49";"52";Ligny;Torre;deputazione;E;"Torre di Ligny.Torre del Senato di Trapani.";"Val di Mazara";"http://gis.osservatorioturistico.sicilia.it/doc/foto/torri/Ligny_TP.jpg";ottimo;pubblica;"http://gis.osservatorioturistico.sicilia.it/doc/foto/torri/ico/ico_Ligny_TP.jpg";"34";"34";"Via Torre di Ligny";TP;Trapani;"12.496976444203646";"38.019606717537270";"081021";"1587553704"
"53";"12.4945876828";"39";"50";"53";Nubia;Torre;deputazione;E;NULL;"Val di Mazara";"http://gis.osservatorioturistico.sicilia.it/doc/foto/torri/Nubia_TP.jpg";ottimo;pubblica;"http://gis.osservatorioturistico.sicilia.it/doc/foto/torri/ico/ico_Nubia_TP.jpg";"35";"35";Nubia;TP;Paceco;"12.494587682848275";"37.981693515835500";"081013";"1587553704"
"54";"12.4893324040";"40";"51";"54";"Marausa o di Mezzo";Torre;deputazione;E;NULL;"Val di Mazara";"http://gis.osservatorioturistico.sicilia.it/doc/foto/torri/Marausa_TP.jpg";buono;pubblica;"http://gis.osservatorioturistico.sicilia.it/doc/foto/torri/ico/ico_Marausa_TP.jpg";"36";"36";Marausa;TP;Trapani;"12.489332403989552";"37.946791447495120";"081021";"1587553704"
"56";"12.4591968974";"41";"53";"56";"San Teodoro A";Torre;privati;E;"(A) o San Todaro.";"Val di Mazara";"http://gis.osservatorioturistico.sicilia.it/doc/foto/torri/San_Teodoro_TP.jpg";buono;privata;"http://gis.osservatorioturistico.sicilia.it/doc/foto/torri/ico/ico_San_Teodoro_TP.jpg";"37";"37";"Capo San Teodoro";TP;Marsala;"12.459196897402789";"37.907318044948190";NULL;"1587553704"
"59";"12.4404867809";"43";"55";"59";Altavilla;Torre;privati;E;"Ubicata a Isola Grande (Marsala).";"Val di Mazara";"http://gis.osservatorioturistico.sicilia.it/doc/foto/torri/Altavilla_TP.jpg";mediocre;privata;"http://gis.osservatorioturistico.sicilia.it/doc/foto/torri/ico/ico_Altavilla_TP.jpg";"38";"38";"Isola Grande";TP;Marsala;"12.440486780878702";"37.881776426302240";"081011";"1587553704"
"60";"12.4453541132";"44";"56";"60";Salina;Torre;privati;E;"Torre della salina.";"Val di Mazara";"http://gis.osservatorioturistico.sicilia.it/doc/foto/torri/Salina_TP.jpg";mediocre;privata;"http://gis.osservatorioturistico.sicilia.it/doc/foto/torri/ico/ico_Salina_TP.jpg";"39";"39";"Isola Grande";TP;Marsala;"12.445354113208348";"37.871450485979500";"081011";"1587553704"
"61";"12.4760474663";"45";"57";"61";Sances;Torre;privati;E;NULL;"Val di Mazara";"http://gis.osservatorioturistico.sicilia.it/doc/foto/torri/Sances_TP.jpg";buono;privata;"http://gis.osservatorioturistico.sicilia.it/doc/foto/torri/ico/ico_Sances_TP.jpg";"40";"40";"Birgi vecchio";TP;Marsala;"12.476047466338391";"37.886456583490240";"081011";"1587553704"
"63";"12.4597426076";"46";"59";"63";Polizzi;Torre;privati;E;NULL;"Val di Mazara";"http://gis.osservatorioturistico.sicilia.it/doc/foto/torri/Polizzi_TP.jpg";buono;privata;"http://gis.osservatorioturistico.sicilia.it/doc/foto/torri/ico/ico_Polizzi_TP.jpg";"41";"41";"SP TP-Marsala Km 24,900";TP;Marsala;"12.459742607575208";"37.814870800243890";"081011";"1587553704"
"64";"12.4665854096";"47";"60";"64";Tonna;Torre;privati;E;NULL;"Val di Mazara";"http://gis.osservatorioturistico.sicilia.it/doc/foto/torri/Tonna_TP.jpg";buono;privata;"http://gis.osservatorioturistico.sicilia.it/doc/foto/torri/ico/ico_Tonna_TP.jpg";"42";"42";"Zona \"Berbarello\"";TP;Marsala;"12.466585409608046";"37.757706371007615";"081011";"1587553704"
"65";"12.4699345529";"48";"61";"65";Sibiliana;Torre;privati;E;"o Sibilliana.";"Val di Mazara";"http://gis.osservatorioturistico.sicilia.it/doc/foto/torri/Sibiliana_TP.jpg";mediocre;privata;"http://gis.osservatorioturistico.sicilia.it/doc/foto/torri/ico/ico_Sibiliana_TP.jpg";"43";"43";"Litorale Tra lido Signorino e lido Piscione";TP;Petrosino;"12.469934552938392";"37.726618920454400";"081024";"1587553704"
"70";"12.6521072917";"49";"66";"70";Sorello;Torre;pubblica;E;"Torre Suarello o di Capo del Suarello.";"Val di Mazara";"http://gis.osservatorioturistico.sicilia.it/doc/foto/torri/Sorello_TP.jpg";ottimo;pubblica;"http://gis.osservatorioturistico.sicilia.it/doc/foto/torri/ico/ico_Sorello_TP.jpg";"44";"44";"A ovest dell'abitato di Torretta Granitola";TP;"Mazara del Vallo";"12.652107291682961";"37.576536843468524";"081012";"1587553704"
"71";"12.6543978493";"50";"67";"71";Granitola;Torre;deputazione;E;"Torretta Granitola; torretta di Mazara.";"Val di Mazara";"http://gis.osservatorioturistico.sicilia.it/doc/foto/torri/Granitola_TP.jpg";discreto;pubblica;"http://gis.osservatorioturistico.sicilia.it/doc/foto/torri/ico/ico_Granitola_TP.jpg";"45";"45";"Torretta Granitola";TP;"Mazara del Vallo";"12.654397849313803";"37.576783786017130";"081012";"1587553704"
"72";"12.7248732901";"51";"68";"72";"Tre Fontane";Torre;deputazione;E;NULL;"Val di Mazara";"http://gis.osservatorioturistico.sicilia.it/doc/foto/torri/Tre_Fontane_TP.jpg";pessimo;pubblica;"http://gis.osservatorioturistico.sicilia.it/doc/foto/torri/ico/ico_Tre_Fontane_TP.jpg";"46";"46";"Tre Fontane";TP;"Campobello di Mazara";"12.724873290137236";"37.568836985988280";"081004";"1587553704"
"73";"12.8251042385";"52";"69";"73";Polluce;Torre;deputazione;E;"Oggi detta \"Casa del viaggiatore\".";"Val di Mazara";"http://gis.osservatorioturistico.sicilia.it/doc/foto/torri/Polluce_TP.jpg";ottimo;pubblica;"http://gis.osservatorioturistico.sicilia.it/doc/foto/torri/ico/ico_Polluce_TP.jpg";"47";"47";"Selinunte Acropoli";TP;Castelvetrano;"12.825104238516510";"37.581992333443424";"081006";"1587553704"
"74";"12.9041325240";"53";"70";"0";"Porto Palo";Torre;deputazione;E;"Torre di Palo.";"Val di Mazara";"http://gis.osservatorioturistico.sicilia.it/doc/foto/torri/PortoPalo_AG.jpg";buono;pubblica;"http://gis.osservatorioturistico.sicilia.it/doc/foto/torri/ico/ico_Porto_Palo_AG.jpg";"48";"48";"Porto Palo";AG;Menfi;"12.904132523969503";"37.575535863260180";"084023";"1587553704"
"76";"13.0245334577";"54";"72";"0";Vignagrande;Torre;privati;E;NULL;"Val di Mazara";"http://gis.osservatorioturistico.sicilia.it/doc/foto/torri/Vignagrande_AG.jpg";mediocre;privata;"http://gis.osservatorioturistico.sicilia.it/doc/foto/torri/ico/ico_Vignagrande_AG.jpg";"49";"49";"Contrada Vignagrande";AG;Sciacca;"13.024533457722812";"37.511274190020570";"084041";"1587553704"
"77";"13.0213587171";"55";"73";"0";Tradimento;Torre;pubblica;E;"Torre San Marco, torre Mazzone.";"Val di Mazara";"http://gis.osservatorioturistico.sicilia.it/doc/foto/torri/Tradimento_AG.jpg";buono;privata;"http://gis.osservatorioturistico.sicilia.it/doc/foto/torri/ico/ico_Tradimento_AG.jpg";"50";"50";"Capo San Marco";AG;Sciacca;"13.021358717116383";"37.497643782682985";"084041";"1587553704"
"78";"13.0622254247";"56";"74";"0";Bellante;Torre;NULL;E;"o Billante.";"Val di Mazara";"http://gis.osservatorioturistico.sicilia.it/doc/foto/torri/Bellante_AG.jpg";cattivo;privata;"http://gis.osservatorioturistico.sicilia.it/doc/foto/torri/ico/ico_Bellante_AG.jpg";"51";"51";"1Km a ovest dal centro di Sciacca";AG;Sciacca;"13.062225424743676";"37.511087154860030";"084041";"1587553704"
"81";"13.1922241239";"57";"77";"0";Verdura;Torre;privati;E;NULL;"Val di Mazara";"http://gis.osservatorioturistico.sicilia.it/doc/foto/torri/Verdura_AG.jpg";buono;privata;"http://gis.osservatorioturistico.sicilia.it/doc/foto/torri/ico/ico_Verdura_AG.jpg";"52";"52";"Da Sciacca dopo il Km 135";AG;Sciacca;"13.192224123948986";"37.473877687731900";"084041";"1587553704"
"86";"13.4295283009";"58";"82";"0";"Monterrosso o Monte Rosso";Torre;deputazione;E;NULL;"Val di Mazara";"http://gis.osservatorioturistico.sicilia.it/doc/foto/torri/Monterosso_AG.jpg";buono;privata;"http://gis.osservatorioturistico.sicilia.it/doc/foto/torri/ico/ico_Monterosso_AG.jpg";"53";"53";"Contrada Monterosso";AG;Realmonte;"13.429528300867805";"37.307731534524250";"084032";"1587553704"
"88";"13.5266056164";"59";"84";"0";"Caricatore di Agrigento";Torre;Feudataria;E;NULL;"Val di Mazara";"http://gis.osservatorioturistico.sicilia.it/doc/foto/torri/Caricatore_AG .jpg";discreto;pubblica;"http://gis.osservatorioturistico.sicilia.it/doc/foto/torri/ico/ico_Caricatore_Girgenti_AG.jpg";"54";"54";"Accesso dal Porto";AG;"Porto Empedocle";"13.526605616447270";"37.286652973740130";"084028";"1587553704"
"89";"13.5729667740";"60";"85";"0";"San Giuseppe";Torre;NULL;E;"E' da identificarsi con la torre di un baglio, trasformato in complesso alberghiero.";"Val di Mazara";"http://gis.osservatorioturistico.sicilia.it/doc/foto/torri/San_Giuseppe_AG.jpg";ottimo;privata;"http://gis.osservatorioturistico.sicilia.it/doc/foto/torri/ico/ico_San_Giuseppe_AG.jpg";"55";"55";"Contrada Maddalusa";AG;Agrigento;"13.572966774000285";"37.278396750480290";"084001";"1587553704"
"91";"13.7313984786";"61";NULL;"0";"San Carlo";Torre;deputazione;E;"Torre di Palma, fortezza della Balatella.";"Val di Mazara";"http://gis.osservatorioturistico.sicilia.it/doc/foto/torri/San_Carlo_AG.jpg";discreto;privata;"http://gis.osservatorioturistico.sicilia.it/doc/foto/torri/ico/ico_San_Carlo_AG.jpg";"56";"56";"Marina di Palma";AG;"Palma di Montechiaro";"13.731398478556619";"37.165951435971586";"084027";"1587553704"
"92";"13.8339572843";"62";"87";"0";Gaffe;Torre;privati;E;"Torre della Gaffe, torre del Grugno.";"Val di Mazara";"http://gis.osservatorioturistico.sicilia.it/doc/foto/torri/Gaffe_AG.jpg";discreto;privata;"http://gis.osservatorioturistico.sicilia.it/doc/foto/torri/ico/ico_Gaffe_AG.jpg";"57";"57";"Torre di Gaffe";AG;Licata;"13.833957284339230";"37.140023861919765";"084021";"1587553704"
"94";"14.1385268560";"63";"89";"0";Manfria;Torre;deputazione;E;NULL;"Val di Noto";"http://gis.osservatorioturistico.sicilia.it/doc/foto/torri/Manfria_CL.jpg";mediocre;privata;"http://gis.osservatorioturistico.sicilia.it/doc/foto/torri/ico/ico_Manfria_CL.jpg";"58";"58";Manfria;CL;Gela;"14.138526856009506";"37.099910532207440";"085007";"1587553704"
"99";"14.4928490289";"64";"94";"0";Scalambri;Torre;deputazione;E;"Torre Scalambri; torre Scarami; torre Rasaraimi; o Rasacarami.";"Val di Noto";"http://gis.osservatorioturistico.sicilia.it/doc/foto/torri/Scalambri_RG.jpg";buono;privata;"http://gis.osservatorioturistico.sicilia.it/doc/foto/torri/ico/ico_Scalambri_RG.jpg";"59";"59";"Capo Scalambri";RG;"Santa Croce Camerina";"14.492849028904796";"36.788045319673195";"088010";"1587553704"
"100";"14.5544077860";"65";"95";"0";Mazzarelli;Torre;deputazione;E;NULL;"Val di Noto";"http://gis.osservatorioturistico.sicilia.it/doc/foto/torri/Mazzarelli_RG.jpg";ottimo;privata;"http://gis.osservatorioturistico.sicilia.it/doc/foto/torri/ico/ico_Mazzarelli_RG.jpg";"60";"60";"Marina di Ragusa";RG;Ragusa;"14.554407785984678";"36.782918429919200";"088009";"1587553704"
"101";"14.6341946153";"66";"96";"0";Donnalucata;Torre;privati;E;NULL;"Val di Noto";"http://gis.osservatorioturistico.sicilia.it/doc/foto/torri/Donnalucata_RG.jpg";buono;privata;"http://gis.osservatorioturistico.sicilia.it/doc/foto/torri/ico/ico_Donnalucata_RG.jpg";"61";"61";"Frazione di Donnalucata";RG;Scicli;"14.634194615333737";"36.774778690574780";"088011";"1587553704"
"102";"14.8486497525";"67";"97";"0";"Pozzallo o Cabrera";Torre;deputazione;E;NULL;"Val di Noto";"http://gis.osservatorioturistico.sicilia.it/doc/foto/torri/Pozzallo_RG.jpg";ottimo;pubblica;"http://gis.osservatorioturistico.sicilia.it/doc/foto/torri/ico/ico_Pozzallo_RG.jpg";"62";"62";"Piazza Rimembranze";RG;Pozzallo;"14.848649752509418";"36.727460711646770";"088008";"1587553704"
"108";"15.0993739491";"68";"103";"0";Vendicari;Torre;deputazione;E;NULL;"Val di Noto";"http://gis.osservatorioturistico.sicilia.it/doc/foto/torri/Vendicari_SR.jpg";ottimo;pubblica;"http://gis.osservatorioturistico.sicilia.it/doc/foto/torri/ico/ico_Vendicari_SR.jpg";"63";"63";"RNO Vendicari";SR;Noto;"15.099373949102274";"36.802632851482340";"089013";"1587553704"
"113";"15.2515224978";"69";"110";"0";Targetta;Torre;privati;E;NULL;"Val di Noto";"http://gis.osservatorioturistico.sicilia.it/doc/foto/torri/Targetta_SR.jpg";buono;privata;"http://gis.osservatorioturistico.sicilia.it/doc/foto/torri/ico/ico_Targetta_SR.jpg";"64";"64";"Ex feudo della Targia";SR;Siracusa;"15.251522497775996";"37.102610491001336";"089017";"1587553704"
"114";"15.2316471443";"70";"111";"0";Magnisi;Torre;NULL;E;"Torre sulla penisola Magnisi o Manghisi; torre alla punta del Lauro.";"Val di Noto";"http://gis.osservatorioturistico.sicilia.it/doc/foto/torri/Magnisi_SR.jpg";ottimo;pubblica;"http://gis.osservatorioturistico.sicilia.it/doc/foto/torri/ico/ico_Magnisi_SR.jpg";"65";"65";"Penisola Magnisi";SR;"Priolo Gargallo";"15.231647144253655";"37.153956877019050";"089021";"1587553704"
"115";"15.2002390282";"71";"112";"0";Fico;Torre;privati;E;NULL;"Val di Noto";"http://gis.osservatorioturistico.sicilia.it/doc/foto/torri/Fico_SR.jpg";discreto;privata;"http://gis.osservatorioturistico.sicilia.it/doc/foto/torri/ico/ico_Fico_SR.jpg";"66";"66";"Litoranea Melilli Priolo";SR;"Priolo Gargallo";"15.200239028152033";"37.158627777205060";"089021";"1587553704"
"118";"15.2240499575";"72";"115";"0";"D'Avalos";Torre;"fortezza regia";E;"Torre Avola.";"Val di Noto";"http://gis.osservatorioturistico.sicilia.it/doc/foto/torri/Avalos_SR.jpg";discreto;pubblica;"http://gis.osservatorioturistico.sicilia.it/doc/foto/torri/ico/ico_Avalos_SR.JPG";"67";"67";"Penisola di Augusta";SR;Augusta;"15.224049957544990";"37.211948436274250";NULL;"1587553704"
"122";"15.1136353203";"73";"119";"0";"Ognina CT";Torre;pubblica;E;"Torre di Ognina; torre di Lognina; torre Saracena.";"Val Demone";"http://gis.osservatorioturistico.sicilia.it/doc/foto/torri/Ognina_CT.jpg";buono;privata;"http://gis.osservatorioturistico.sicilia.it/doc/foto/torri/ico/ico_Ognina_CT.jpg";"68";"68";"Lungomare Ognina";CT;Catania;"15.113635320261690";"37.527885328231640";"087015";"1587553704"
"123";"15.2607349066";"74";"120";"0";"Ognina SR";Torretta;deputazione;E;NULL;"Val di Noto";"http://gis.osservatorioturistico.sicilia.it/doc/foto/torri/Ognina_SR.jpg";buono;pubblica;"http://gis.osservatorioturistico.sicilia.it/doc/foto/torri/ico/ico_Ognina_SR.jpg";"69";"69";"Capo Ognina";SR;Siracusa;"15.260734906633466";"36.975320526499400";"089017";"1587553704"
"125";"15.1612485747";"75";"122";"0";Faraglione;Torre;deputazione;E;NULL;"Val Demone";"http://gis.osservatorioturistico.sicilia.it/doc/foto/torri/Faraglione_CT.jpg";discreto;pubblica;"http://gis.osservatorioturistico.sicilia.it/doc/foto/torri/ico/ico_Faraglione_CT.jpg";"70";"70";Acitrezza;CT;Acicastello;"15.161248574729282";"37.562674935842940";"087002";"1587553704"
"126";"15.1760352602";"76";"123";"0";"Sant'Anna o di Capo Mulini";Torre;deputazione;E;"Torre di Sant'Anna; torre di Capo Mulini o Molino.";"Val Demone";"http://gis.osservatorioturistico.sicilia.it/doc/foto/torri/Capo_Mulini_CT.jpg";buono;pubblica;"http://gis.osservatorioturistico.sicilia.it/doc/foto/torri/ico/ico_Capo_Mulini_CT.jpg";"71";"71";"Capo Mulini";CT;Acireale;"15.176035260193697";"37.576209786570400";"087004";"1587553704"
"128";"15.1843397736";"77";"125";"0";"Santa Tecla";Torre;deputazione;E;"Torretta di Santa Tecla; Ritola.";"Val Demone";"http://gis.osservatorioturistico.sicilia.it/doc/foto/torri/Santa_Tecla_CT.jpg";discreto;pubblica;"http://gis.osservatorioturistico.sicilia.it/doc/foto/torri/ico/ico_Santa_Tecla_CT.jpg";"72";"72";"Santa Tecla";CT;Acireale;"15.184339773648219";"37.640219285644850";"087004";"1587553704"
"132";"15.2719482459";"78";"130";"0";Schisò;Torre;privati;E;NULL;"Val Demone";"http://gis.osservatorioturistico.sicilia.it/doc/foto/torri/Schisò_ME.jpg";buono;privata;"http://gis.osservatorioturistico.sicilia.it/doc/foto/torri/ico/ico_Schisò_ME.jpg";"73";"73";"Golfo di Giardini";ME;"Giardini Naxos";"15.271948245908215";"37.823752995504090";"083032";"1587553704"
"134";"15.3712693519";"79";"132";"0";Baglio;Torre;privati;E;NULL;"Val Demone";"http://gis.osservatorioturistico.sicilia.it/doc/foto/torri/Baglio_ME.jpg";cattivo;privata;"http://gis.osservatorioturistico.sicilia.it/doc/foto/torri/ico/ico_Baglio_ME.jpg";"74";"74";"Via Sparagonà";ME;"Santa Teresa di Riva";"15.371269351947650";"37.952774781231220";"083089";"1587553704"
"135";"15.3574670892";"80";"133";"0";Bolina;Torre;privati;E;NULL;"Val Demone";"http://gis.osservatorioturistico.sicilia.it/doc/foto/torri/Bolina_ME.jpg";mediocre;privata;"http://gis.osservatorioturistico.sicilia.it/doc/foto/torri/ico/ico_Bolina_ME.jpg";"75";"75";"Via Bolina,35";ME;"Santa Teresa di Riva";"15.357467089229140";"37.936904424292940";"083089";"1587553704"
"137";"15.3742659671";"81";NULL;"0";Saraceni;Torre;privati;E;NULL;"Val Demone";"http://gis.osservatorioturistico.sicilia.it/doc/foto/torri/Saraceni_ME.jpg";buono;privata;"http://gis.osservatorioturistico.sicilia.it/doc/foto/torri/ico/ico_Saraceni_ME.jpg";"76";"76";"Piazza Madonna del Carmelo";ME;"Santa Teresa di Riva";"15.374265967135058";"37.953433020267800";"083089";"1587553704"
"139";"15.3494403198";"82";NULL;"0";Catalmo;Torre;Incerta;E;NULL;"Val Demone";"http://gis.osservatorioturistico.sicilia.it/doc/foto/torri/Catalmo_ME.jpg";buono;privata;"http://gis.osservatorioturistico.sicilia.it/doc/foto/torri/ico/ico_Catalmo_ME.jpg";"77";"77";"Via Catalmo";ME;"Santa Teresa di Riva";"15.349440319810274";"37.937395520422214";"083089";"1587553704"
"140";"15.3897334645";"83";NULL;"0";"Lumera o Pagliara o Ficarra";Torre;privati;E;"Torre della Lumera; della Pagliara; della Palma; torre Ficarra.";"Val Demone";"http://gis.osservatorioturistico.sicilia.it/doc/foto/torri/Lumera_ME.jpg";buono;privata;"http://gis.osservatorioturistico.sicilia.it/doc/foto/torri/ico/ico_Lumera_ME.jpg";"78";"78";"Via della Torre";ME;Roccalumera;"15.389733464503530";"37.970650447674220";"083072";"1587553704"
"144";"15.5744472325";"84";"139";"0";"Lanterna di Messina o San Raineri";Torre;regia;E;"Torre della Lanterna; torre o lanterna di San Raineri o Ranieri.";"Val Demone";"http://gis.osservatorioturistico.sicilia.it/doc/foto/torri/Torre_della_Lanterna_ME.jpg";buono;pubblica;"http://gis.osservatorioturistico.sicilia.it/doc/foto/torri/ico/ico_Torre_della_Lanterna_ME.jpg";"79";"79";"Via San Raineri";ME;Messina;"15.574447232511600";"38.193577048199110";"083048";"1587553704"
"145";"15.6126335024";"85";"140";"0";Cariddi;Torre;feudataria;E;NULL;"Val Demone";"http://gis.osservatorioturistico.sicilia.it/doc/foto/torri/Cariddi_ME.jpg";discreto;privata;"http://gis.osservatorioturistico.sicilia.it/doc/foto/torri/ico/ico_Cariddi_ME.jpg";"80";"80";Ganzirri;ME;Messina;"15.612633502366739";"38.257300264495940";"083048";"1587553704"
"146";"15.6506899241";"86";"141";"0";"Torre del Faro";Torre;NULL;E;NULL;"Val Demone";"http://gis.osservatorioturistico.sicilia.it/doc/foto/torri/Torre_Faro_ME.jpg";buona;pubblica;"http://gis.osservatorioturistico.sicilia.it/doc/foto/torri/ico/ico_Torre_Faro_ME.jpg";"81";"81";"Capo Peloro";ME;Messina;"15.650689924092429";"38.268168955098590";"083048";"1587553704"
"147";"15.6407558963";"87";"142";"0";"Mazzone oTorre Bianca";Torre;NULL;E;NULL;"Val Demone";"http://gis.osservatorioturistico.sicilia.it/doc/foto/torri/Bianca_ME.jpg";mediocre;pubblica;"http://gis.osservatorioturistico.sicilia.it/doc/foto/torri/ico/ico_Torre_Bianca_ME.jpg";"82";"82";Ganzirri;ME;Messina;"15.640755896349036";"38.272138058239996";"083048";"1587553704"
"148";"15.5191159116";"88";"143";"0";Rasocolmo;Torre;pubblica;E;NULL;"Val Demone";"http://gis.osservatorioturistico.sicilia.it/doc/foto/torri/Rasocolmo_ME.jpg";buono;pubblica;"http://gis.osservatorioturistico.sicilia.it/doc/foto/torri/ico/ico_Rasocolmo_ME.jpg";"83";"83";"Capo Rasocolmo";ME;Messina;"15.519115911613522";"38.295700892731700";"083048";"1587553704"
"149";"15.4424226481";"89";"145";"0";Divieto;Torre;privati;E;"Faro.";"Val Demone";"http://gis.osservatorioturistico.sicilia.it/doc/foto/torri/Divieto_ME.jpg";ottimo;privata;"http://gis.osservatorioturistico.sicilia.it/doc/foto/torri/ico/ico_Divieto_ME.jpg";"84";"84";"Piazza Arau";ME;"Villafranca Tirrena";"15.442422648097757";"38.241137143441420";"083105";"1587553704"
"150";"15.2442367894";"90";"146";"0";"Tonda di Milazzo";Torretta;NULL;E;NULL;"Val Demone";"http://gis.osservatorioturistico.sicilia.it/doc/foto/torri/Tonda_Milazzo_ME.jpg";buono;privata;"http://gis.osservatorioturistico.sicilia.it/doc/foto/torri/ico/ico_Tonda_ME.jpg";"85";"85";"Capo Milazzo";ME;Milazzo;"15.244236789357004";"38.237107565276580";"083049";"1587553704"
"152";"15.4733292552";"91";NULL;"0";Marmora;Torre;privati;E;NULL;"Val Demone";"http://gis.osservatorioturistico.sicilia.it/doc/foto/torri/Marmora_ME.jpg";discreto;privata;"http://gis.osservatorioturistico.sicilia.it/doc/foto/torri/ico/ico_Marmora_ME.jpg";"86";"86";"Capo Marmora";ME;Messina;"15.473329255162753";"38.264045808304935";"083048";"1587553704"
"153";"15.2308760651";"92";NULL;"0";"Lanterna di Milazzo";Torre;deputazione;E;"Torre della lanterna di Milazzo, oggi faro.";"Val Demone";"http://gis.osservatorioturistico.sicilia.it/doc/foto/torri/Lanterna_Milazzo_ME.jpg";mediocre;pubblica;"http://gis.osservatorioturistico.sicilia.it/doc/foto/torri/ico/ico_Torre_Lanterna_Milazzo_ME.jpg";"87";"87";"Punta Baldassarre";ME;Milazzo;"15.230876065077876";"38.269836501636500";"083049";"1587553704"
"156";"15.1794578138";"93";"151";"0";Cantone;Torre;pubblica;E;NULL;"Val Demone";"http://gis.osservatorioturistico.sicilia.it/doc/foto/torri/Cantone_ME.jpg";buono;privata;"http://gis.osservatorioturistico.sicilia.it/doc/foto/torri/ico/ico_Cantone_ME.jpg";"88";"88";"Fiumara Termini o Patrì";ME;"Barcellona Pozzo di Gotto";"15.179457813795546";"38.154463732553820";"083005";"1587553704"
"163";"14.8937069845";"95";"159";"0";Zappardini;Torre;privati;E;NULL;"Val Demone";"http://gis.osservatorioturistico.sicilia.it/doc/foto/torri/Zappardini_ME.jpg";mediocre;privata;"http://gis.osservatorioturistico.sicilia.it/doc/foto/torri/ico/ico_Zappardini_ME.jpg";"89";"89";"Via Natoli Gatto";ME;"Gioiosa Marea";"14.893706984451217";"38.172904032933850";"083033";"1587553704"
"164";"14.8572634450";"96";NULL;"0";Ciavole;Torre;Deputazione;E;NULL;"Val Demone";"http://gis.osservatorioturistico.sicilia.it/doc/foto/torri/Ciavole_ME.jpg";mediocre;privata;"http://gis.osservatorioturistico.sicilia.it/doc/foto/torri/ico/ico_Ciavole_ME.jpg";"90";"90";"Frazione di Gliaca";ME;Piraino;"14.857263444964532";"38.169572413390910";NULL;"1587553704"
"165";"14.6749670497";"97";"161";"0";Marco;Torre;NULL;E;NULL;"Val Demone";"http://gis.osservatorioturistico.sicilia.it/doc/foto/torri/Torre_Marco_ME.jpg";cattivo;pubblica;"http://gis.osservatorioturistico.sicilia.it/doc/foto/torri/ico/ico_Torre_Marco_ME.jpg";"91";"91";"Riva Est torrente Favara";ME;Torrenova;"14.674967049686295";"38.090722436940460";"083108";"1587553704"
"168";"14.5305983305";"98";"166";"0";Lauro;Torre;deputazione;E;"Torre del Lauro; torre di passo del Lauro.";"Val Demone";"http://gis.osservatorioturistico.sicilia.it/doc/foto/torri/Lauro_ME.jpg";ottimo;privata;"http://gis.osservatorioturistico.sicilia.it/doc/foto/torri/ico/ico_Lauro_ME.jpg";"92";"92";"Passo del Lauro";ME;Caronia;"14.530598330500037";"38.043931649302460";"083011";"1587553704"
"171";"14.3209114476";"99";"170";"0";"Torre Muzza";Torre;feudataria;E;NULL;"Val Demone";"http://gis.osservatorioturistico.sicilia.it/doc/foto/torri/Torremuzza_ME.jpg";cattivo;privata;"http://gis.osservatorioturistico.sicilia.it/doc/foto/torri/ico/ico_Torremuzza_ME.jpg";"93";"93";"Punta della Pazza";ME;"Motta D'Affermo";"14.320911447609750";"38.010073828022830";"083059";"1587553704"
"172";"14.2092135354";"100";"171";"0";Scillichenti;Torre;deputazione;E;NULL;"Val Demone";"http://gis.osservatorioturistico.sicilia.it/doc/foto/torri/Scillichenti_ME.jpg";buono;pubblica;"http://gis.osservatorioturistico.sicilia.it/doc/foto/torri/ico/ico_Scillichenti_ME.jpg";"94";"94";"SS113";ME;Tusa;"14.209213535436380";"38.014665862742880";"083101";"1587553704"
"173";"14.1633220568";"101";"172";"0";Finale;Torre;deputazione;E;"Torre_del Marchese.";"Val Demone";"http://gis.osservatorioturistico.sicilia.it/doc/foto/torri/Finale_PA.jpg";buono;pubblica;"http://gis.osservatorioturistico.sicilia.it/doc/foto/torri/ico/ico_Finale_PA.jpg";"95";"95";"Lungomare Marco Polo";PA;Pollina;"14.163322056791403";"38.019978674685770";"082059";"1587553704"
"175";"14.1471671022";"102";"174";"0";Raisigerbi;Torre;deputazione;E;NULL;"Val Demone";"http://gis.osservatorioturistico.sicilia.it/doc/foto/torri/Raisigerbi_PA.jpg";cattivo;privata;"http://gis.osservatorioturistico.sicilia.it/doc/foto/torri/ico/ico_Raisigerbi_PA.jpg";"96";"96";"Capo Raisigerbi";PA;Pollina;"14.147167102226130";"38.029676857745940";"082059";"1587553704"
"176";"14.1395533973";"103";"175";"0";Conche;Torre;deputazione;E;NULL;"Val Demone";"http://gis.osservatorioturistico.sicilia.it/doc/foto/torri/Conche_PA.jpg";buono;pubblica;"http://gis.osservatorioturistico.sicilia.it/doc/foto/torri/ico/ico_Conche_PA.jpg";"97";"97";"SS113 Km 174,300";PA;Pollina;"14.139553397308720";"38.021875165592256";"082059";"1587553704"
"178";"14.0394913824";"104";"177";"0";Calura;Torre;deputazione;E;NULL;"Val Demone";"http://gis.osservatorioturistico.sicilia.it/doc/foto/torri/Calura_PA.jpg";pessimo;privata;"http://gis.osservatorioturistico.sicilia.it/doc/foto/torri/ico/ico_Calura_PA.jpg";"98";"98";"Contrada Calura";PA;Cefalù;"14.039491382378090";"38.036184001164380";"082027";"1587553704"
"180";"13.9987698296";"105";NULL;"0";"Santa Lucia";Torre;privati;E;NULL;"Val Demone";"http://gis.osservatorioturistico.sicilia.it/doc/foto/torri/Santa_Lucia_PA.jpg";buono;privata;"http://gis.osservatorioturistico.sicilia.it/doc/foto/torri/ico/ico_Santa_Lucia_PA.jpg";"99";"99";"SS113 Km 188,99";PA;Cefalù;"13.998769829609452";"38.034701836388756";"082027";"1587553704"
"181";"13.9669309951";"106";"179";"0";Settefrati;Torre;privati;E;NULL;"Val Demone";"http://gis.osservatorioturistico.sicilia.it/doc/foto/torri/Settefrati_PA.jpg";buono;pubblica;"http://gis.osservatorioturistico.sicilia.it/doc/foto/torri/ico/ico_Settefrati_PA.jpg";"100";"100";"SS113 Km 191,400";PA;Cefalù;"13.966930995099070";"38.028726162199355";"082027";"1587553704"
"182";"13.9406669007";"107";"180";"0";Tonda;Torre;NULL;E;NULL;"Val Demone";"http://gis.osservatorioturistico.sicilia.it/doc/foto/torri/Tonda_PA.jpg";discreto;privata;"http://gis.osservatorioturistico.sicilia.it/doc/foto/torri/ico/ico_Tonda_PA.jpg";"101";"101";"Contrada Torre Tonda";PA;Lascari;"13.940666900666171";"38.014960628774760";"082044";"1587553704"
"183";"13.9240691462";"108";"181";"0";Pastine;Torre;NULL;E;NULL;"Val Demone";"http://gis.osservatorioturistico.sicilia.it/doc/foto/torri/Pastine_PA.jpg";mediocre;privata;"http://gis.osservatorioturistico.sicilia.it/doc/foto/torri/ico/ico_Pastine_PA.jpg";"102";"102";"Contrada Piano Pastena";PA;Lascari;"13.924069146204126";"38.012228623945106";"082044";"1587553704"
"185";"13.8106881033";"109";"184";"185";Battilamano;Torre;privati;E;NULL;"Val di Mazara";"http://gis.osservatorioturistico.sicilia.it/doc/foto/torri/Battilamano_PA.jpg";cattivo;privata;"http://gis.osservatorioturistico.sicilia.it/doc/foto/torri/ico/ico_Battilamano_PA.jpg";"103";"103";"Piana di Buonfornello";PA;"Termini Imerese";"13.810688103258286";"37.977634857888106";"082070";"1587553704"
"187";"13.5989637201";"110";"186";"187";Mandre;Torre;deputazione;E;"Erroneamente detta torre di Capo Grosso.";"Val di Mazara";"http://gis.osservatorioturistico.sicilia.it/doc/foto/torri/Mandre_PA.JPG";buono;privata;"http://gis.osservatorioturistico.sicilia.it/doc/foto/torri/ico/ico_Mandre_PA.jpg";"104";"104";"SS113 Km 233/234";PA;"Altavilla Milicia";"13.598963720073062";"38.026520776606380";"082004";"1587553704"
"188";"13.5853514642";"111";"188";"188";Colonna;Torre;deputazione;E;"Presenti superfetazioni recenti, erronemanente detta della Milicia.";"Val di Mazara";"http://gis.osservatorioturistico.sicilia.it/doc/foto/torri/Colonna_PA.jpg";ottimo;privata;"http://gis.osservatorioturistico.sicilia.it/doc/foto/torri/ico/ico_Colonna_PA.jpg";"105";"105";"Pressi complesso Sporting";PA;"Altavilla Milicia";"13.585351464238176";"38.031906499661964";"082004";"1587553704"
"189";"13.5540344611";"112";"189";"189";Milicia;Torre;privati;E;NULL;"Val di Mazara";"http://gis.osservatorioturistico.sicilia.it/doc/foto/torri/Milicia_PA.jpg";cattivo;privata;"http://gis.osservatorioturistico.sicilia.it/doc/foto/torri/ico/ico_Milicia_PA.jpg";"106";"106";"Svincolo autostradale";PA;"Altavilla Milicia";"13.554034461136110";"38.044066542758300";"082004";"1587553704"
"190";"13.5346069135";"113";"190";"190";Sperlinga;Torre;privati;E;NULL;"Val di Mazara";"http://gis.osservatorioturistico.sicilia.it/doc/foto/torri/Sperlinga_PA.jpg";discreto;privata;"http://gis.osservatorioturistico.sicilia.it/doc/foto/torri/ico/ico_Sperlinga_PA.jpg";"107";"107";"SS113 Km 243,200";PA;"Santa Flavia";"13.534606913493400";"38.070823724777670";"082067";"1587553704"
"195";"13.4828105265";"114";"194";"195";Compagnone;Torre;privati;E;"Uso attuale, magazzino agricolo.";"Val di Mazara";"http://gis.osservatorioturistico.sicilia.it/doc/foto/torri/Compagnone_PA.jpg";buono;privata;"http://gis.osservatorioturistico.sicilia.it/doc/foto/torri/ico/ico_Compagnone_PA.jpg";"108";"108";"SS113 Km 249";Pa;Bagheria;"13.482810526454860";"38.094689967795670";"082006";"1587553704"
"196";"13.4774751227";"115";"195";"196";Cordova;Torre;privati;E;"Uso attuale, magazzino.";"Val di Mazara";"http://gis.osservatorioturistico.sicilia.it/doc/foto/torri/Cordova_PA.jpg";cattivo;privata;"http://gis.osservatorioturistico.sicilia.it/doc/foto/torri/ico/ico_Cordova_PA.jpg";"109";"109";"SS113 dopo ponte fiume Eleuterio";PA;Ficarazzi;"13.477475122670151";"38.093875032414175";"082035";"1587553704"
"197";"13.4320517293";"116";"197";"197";"Acqua dei Corsari";Torre;deputazione;E;"o torre Guzmana.";"Val di Mazara";"http://gis.osservatorioturistico.sicilia.it/doc/foto/torri/Acqua_dei_Corsari_PA.jpg";buono;pubblica;"http://gis.osservatorioturistico.sicilia.it/doc/foto/torri/ico/ico_Acqua_dei_Corsari_PA.jpg";"110";"110";"Acqua dei Corsari";PA;Palermo;"13.432051729330016";"38.096119114748620";"082053";"1587553704"
"198";"13.1537614225";"117";NULL;"198";Spalmatore;Torre;deputazione;E;NULL;"Val di Mazara";"http://gis.osservatorioturistico.sicilia.it/doc/foto/torri/Spalmatore_PA.jpg";buono;pubblica;"http://gis.osservatorioturistico.sicilia.it/doc/foto/torri/ico/ico_Spalmatore_Ustica_PA.jpg";"111";"111";"Punta Spalmatore";PA;Ustica;"13.153761422499407";"38.699133971309564";"082075";"1587553704"
"199";"13.1933154780";"118";NULL;"199";"Santa Maria";Torre;deputazione;E;NULL;"Val di Mazara";"http://gis.osservatorioturistico.sicilia.it/doc/foto/torri/Santa_Maria_Ustica_PA.jpg";ottimo;pubblica;"http://gis.osservatorioturistico.sicilia.it/doc/foto/torri/ico/ico_Santa_Maria_Ustica_PA.jpg";"112";"112";"Cala Santa Maria";PA;Ustica;"13.193315478000558";"38.706760228440110";"082075";"1587553704"
"201";"12.7694966241";"119";NULL;"201";Secco;"Torre della tonnara";privati;E;"Torre della tonnara.";"Val di Mazara";"http://gis.osservatorioturistico.sicilia.it/doc/foto/torri/Secco_TP.jpg";discreto;privata;"http://gis.osservatorioturistico.sicilia.it/doc/foto/torri/ico/ico_Tonnara_Secco_TP.jpg";"113";"113";"Tonnara del Secco";TP;"San Vito";"12.769496624095206";"38.168073361264410";"081020";"1587553704"
"202";"14.0527949304";"120";NULL;"0";Falconara;Torre;feudataria;E;NULL;"Val di Noto";"http://gis.osservatorioturistico.sicilia.it/doc/foto/torri/Falconara_CL.jpg";buono;privata;"http://gis.osservatorioturistico.sicilia.it/doc/foto/torri/ico/ico_Falconara_CL.jpg";"114";"114";"Castello di Falconara";CL;Butera;"14.052794930375140";"37.108431884951290";"085003";"1587553704"
"207";"12.4787303788";"121";NULL;"207";Abele;Torre;privati;E;"Ricadeva nella proprietà del ricco possidente Abele Damiani.";"Val di Mazara";"http://gis.osservatorioturistico.sicilia.it/doc/foto/torri/Abele_TP.jpg";buono;privata;"http://gis.osservatorioturistico.sicilia.it/doc/foto/torri/ico/ico_Abele_TP.jpg";"115";"115";"Birgi Vecchio";TP;Marsala;"12.478730378763911";"37.883697317235480";"081011";"1587553704"
"208";"12.4722825546";"122";NULL;"208";Passalacqua;Torre;NULL;E;NULL;"Val di Mazara";"http://gis.osservatorioturistico.sicilia.it/doc/foto/torri/Passalacqua_TP.jpg";buono;privata;"http://gis.osservatorioturistico.sicilia.it/doc/foto/torri/ico/ico_Passalacqua_TP.jpg";"116";"116";"Birgi vecchio";TP;Marsala;"12.472282554582190";"37.890240240066250";"081011";"1587553704"
"210";"12.4699572375";"123";NULL;"210";"Anonima di proprietà Alagna";Torre;NULL;E;NULL;"Val di Mazara";"http://gis.osservatorioturistico.sicilia.it/doc/foto/torri/Alagna_TP.jpg";discreto;privata;"http://gis.osservatorioturistico.sicilia.it/doc/foto/torri/ico/ico_Alagna_TP .jpg";"117";"117";"Lungomare Marsala-Petrosino";TP;Marsala;"12.469957237540195";"37.759235221962605";"081011";"1587553704"
"49";"12.4957508139";"124";NULL;"49";Colombara;Torre;regio_demanio;E;"o della Colombaia.";"Val di Mazara";"http://gis.osservatorioturistico.sicilia.it/doc/foto/torri/Colombaia_TP.jpg";buono;pubblica;"http://gis.osservatorioturistico.sicilia.it/doc/foto/torri/ico/ico_Colombaia_TP.jpg";"118";"118";"Isolotto della Colombara";TP;Trapani;"12.495750813934874";"38.011444138977296";"081021";"1587553704"
"212";"13.6160106446";"125";NULL;"212";"San Nicola l'Arena";Torre;NULL;E;NULL;"Val di Mazara";"http://gis.osservatorioturistico.sicilia.it/doc/foto/torri/San_Nicola_l'Arena_PA.jpg";buono;privata;"http://gis.osservatorioturistico.sicilia.it/doc/foto/torri/ico/ico_San_Nicola_ l'Arena_PA.jpg";"119";"119";"Frazione San Nicola l'Arena";PA;Trabia;"13.616010644560250";"38.015557495937486";"082073";"1587553704"
"215";"13.8660674235";"126";NULL;"0";"Ottagonale San Nicola";Torre;privati;E;"E' ottagonale,a pochi metri dalla torre circolare.";"Val di Mazara";"http://gis.osservatorioturistico.sicilia.it/doc/foto/torri/San Nicola_AG.jpg";discreto;pubblica;"http://gis.osservatorioturistico.sicilia.it/doc/foto/torri/ico/ico_Ottagonale_San_Nicola_AG.jpg";"120";"120";"Contrada san Nicola";AG;Licata;"13.866067423471684";"37.111100506386010";"084021";"1587553704"
"216";"15.6517748113";"127";NULL;"0";"Forte degli Inglesi";Torre;pubblica;E;"Torrione del Forte degli Inglesi.Costruita presumibilmente dalle autorità militari inglesi.";"Val Demone";"http://gis.osservatorioturistico.sicilia.it/doc/foto/torri/Forte_Inglesi_ME.jpg";buono;pubblica;"http://gis.osservatorioturistico.sicilia.it/doc/foto/torri/ico/ico_Forte_degli_Inglesi_ME.jpg";"121";"121";"Capo peloro";ME;Messina;"15.651774811316034";"38.268544174307756";"083048";"1587553704"
"215";"14.9526541579";"128";NULL;"0";Mendolita;Torre;NULL;E;"Posizionamento incerto.";"Val Demone";"http://gis.osservatorioturistico.sicilia.it/doc/foto/torri/Mendolita_ME.jpg";buono;privata;"http://gis.osservatorioturistico.sicilia.it/doc/foto/torri/ico/ico_Mendolita_ME.jpg";"122";"122";Mendolita;ME;Lipari;"14.952654157850837";"38.460829714044905";"083041";"1587553704"
"217";"14.6822664109";"129";NULL;"0";Gatto;Torre;privati;E;"Denominazione dovuta probabilente al soprannome di una famiglia del luogo.";"Val Demone";"http://gis.osservatorioturistico.sicilia.it/doc/foto/torri/Gatto_ME.jpg";buono;privata;"http://gis.osservatorioturistico.sicilia.it/doc/foto/torri/ico/ico_Gatto_ME.jpg";"123";"123";"SS113 km115,300";ME;Torrenova;"14.682266410877244";"38.090892542421344";"083108";"1587553704"
"0";"15.1065405400";"0";NULL;"0";"Torretta Piazza Europa";Garitta;pubblica;E;"Garitta militare di epoca spagnola.";"Val Demone";"http://gis.osservatorioturistico.sicilia.it/doc/foto/torri/Piazza Europa_CT.jpg";buono;pubblica;"http://gis.osservatorioturistico.sicilia.it/doc/foto/torri/ico/ico_Piazza Europa CT.jpg";"124";"124";"Piazza Europa";CT;Catania;"15.106540539974985";"37.516737833154785";"087015";"1587553704"
"0";"15.1156701563";"0";NULL;"0";"Torretta di Ognina";Garitta;pubblica;E;"Garitta militare di epoca spagnola.";"Val Demone";"http://gis.osservatorioturistico.sicilia.it/doc/foto/torri/Ognina lungomare CT.jpg";buono;pubblica;"http://gis.osservatorioturistico.sicilia.it/doc/foto/torri/ico/ico_Ognina lungomare CT.jpg";"125";"125";"Via Artale Alagona,Lungomare Ognina";CT;Catania;"15.115670156335367";"37.528006988136660";"087015";"1587553704"
"0";"15.1764431478";"0";NULL;"0";Alessandrano;Torre;privati;PRV;"Torriglione o torre Vecchia.";"Val Demone";"http://gis.osservatorioturistico.sicilia.it/doc/foto/torri/Alessandrano CT.jpg";cattivo;pubblica;"http://gis.osservatorioturistico.sicilia.it/doc/foto/torri/ico/ico_Alessandrano_CT.jpg";"126";"126";"SS114 ingresso Capo Mulini";CT;Acireale;"15.176443147802201";"37.576331153341220";"087004";"1587553704"
"0";"15.4402670834";"0";NULL;"0";"Capo Grosso";Torre;incerta;PRV;NULL;"Val Demone";"http://gis.osservatorioturistico.sicilia.it/doc/foto/torri/Capo Grosso ME.jpg";cattivo;pubblica;"http://gis.osservatorioturistico.sicilia.it/doc/foto/torri/ico/ico_Capo Grosso ME.jpg";"127";"127";"Capo di Alì o Capo Grosso";ME;"Alì Terme";"15.440267083368473";"38.018332516032150";"083003";"1587553704"
"0";"15.4660788575";"0";NULL;"0";Tarantonio;Torre;iIncerta;PRV;"Torre Vecchio.";"Val Demone";"http://gis.osservatorioturistico.sicilia.it/doc/foto/torri/";cattivo;privata;"http://gis.osservatorioturistico.sicilia.it/doc/foto/torri/ico/ico_Tarantonio_ME.jpg";"128";"128";"Altura a ovest torrente Tarantonio";ME;Messina;"15.466078857488533";"38.258190896178014";"083048";"1587553704"
"0";"15.2352086903";"0";NULL;"0";"Capo Bianco";Torre;incerta;PRV;"Torre o guardiola di Capo Bianco; o torre Longa.";"Val Demone";"http://gis.osservatorioturistico.sicilia.it/doc/foto/torri/Capo Bianco_ME.jpg";cattivo;pubblica;"http://gis.osservatorioturistico.sicilia.it/doc/foto/torri/ico/ico_Capo_Bianco_ME.jpg";"129";"129";"C/da Baronia";ME;Milazzo;"15.235208690254776";"38.267145399373480";"083049";"1587553704"
"0";"15.2264863616";"0";NULL;"0";"Ottagonale di Milazzo";Torretta;privati;PRV;"o della baia di Sant'Antonio; o di Punta Messinese;o d'Amico; o torre del Palombaro.";"Val Demone";"http://gis.osservatorioturistico.sicilia.it/doc/foto/torri/Ottagonale_Milazzo_ME.jpg";cattivo;privata;"http://gis.osservatorioturistico.sicilia.it/doc/foto/torri/ico/ico_Ottagonale Milazzo_ME.jpg";"130";"130";"Punta Messinese";ME;Milazzo;"15.226486361637892";"38.268099783735320";NULL;"1587553704"
"0";"15.0140240057";"0";NULL;"0";Sciacca;Torre;privati;PRV;NULL;"Val Demone";"http://gis.osservatorioturistico.sicilia.it/doc/foto/torri/Sciacca_ME.JPG";cattivo;privata;"http://gis.osservatorioturistico.sicilia.it/doc/foto/torri/ico/ico_ Sciacca_ME.jpg";"131";"132";"SS 113 km 71,100 Via San Salvatore";ME;Mongiove;"15.014024005673622";"38.144351870513624";"083066";"1587553704"
"0";"14.6333967303";"0";NULL;"0";"Sant'Agata";Torre;baronale;E;NULL;"Val Demone";"http://gis.osservatorioturistico.sicilia.it/doc/foto/torri/Sant'Agata_ME.jpg";buono;pubblica;"http://gis.osservatorioturistico.sicilia.it/doc/foto/torri/ico/ico_Sant'Agata_ME.jpg";"132";"133";Lungomare;ME;"Sant'Agata di Militello";"14.633396730251030";"38.069624137258610";"083084";"1587553704"
"0";"14.4468623414";"0";NULL;"0";Caronia;Torre;privati;E;"Torre della Marina di Caronia; torre della tonnara di Caronia.";"Val Demone";"http://gis.osservatorioturistico.sicilia.it/doc/foto/torri/";buono;privata;"http://gis.osservatorioturistico.sicilia.it/doc/foto/torri/ico/ico_torre_Marina _di Caronia_ME.jpg";"133";"134";"Marina di Caronia";ME;Caronia;"14.446862341393523";"38.032086856824684";"083011";"1587553704"
"0";"14.1521916274";"0";NULL;"0";Ammazzagatto;Torre;privati;PRV;"Torre Vecchia; il nome del luogo è anche storpiato in\"Malgagatto\" da Villabianca e \"Mangiagatto\".";"Val Demone";"http://gis.osservatorioturistico.sicilia.it/doc/foto/torri/Ammazzagatto_PA.jpg";cattivo;privata;"http://gis.osservatorioturistico.sicilia.it/doc/foto/torri/ico/ico_ammazzagatto_PA.jpg";"134";"136";"SS113 Km 173,100";PA;Pollina;"14.152191627364582";"38.025266391206465";"082059";"1587553704"
"0";"14.0876491712";"0";NULL;"0";"Sant'Ambrogio";Torre;deputazione;PRV;NULL;"Val Demone";"http://gis.osservatorioturistico.sicilia.it/doc/foto/torri/Sant'Ambrogio_PA.jpg";cattivo;pubblica;"http://gis.osservatorioturistico.sicilia.it/doc/foto/torri/ico/ico_Sant'Ambrogio_PA.jpg";"135";"137";"Sant'Ambrogio";PA;Cefalù;"14.087649171233243";"38.019197978074810";"082027";"1587553704"
"0";"14.0002493753";"0";NULL;"0";Grugno;Torre;deputazione;PRV;"I resti della ipotetica torre si trovano all'interno del Club Mediterranèe.";"Val Demone";"http://gis.osservatorioturistico.sicilia.it/doc/foto/torri/";cattivo;privata;"http://gis.osservatorioturistico.sicilia.it/doc/foto/torri/ico/ico_torre del Grugno_PA.jpg";"136";"138";"SS 113 km 188,900";PA;Cefalù;"14.000249375342610";"38.032635140819130";"082027";"1587553704"
"0";"14.4603650146";"0";NULL;"0";"Vigliena o Braccetto";Torre;deputazione;PRV;"Torre Vigliena; torre Brazzetto (ora Braccetto); torre Portozetto; torre della Colombara.";"Val Demone";"http://gis.osservatorioturistico.sicilia.it/doc/foto/torri/Vigliena o Braccetto_RG.jpg";cattivo;pubblica;"http://gis.osservatorioturistico.sicilia.it/doc/foto/torri/ico/ico_Vigliena o Braccetto_RG.jpg";"137";"139";"Punta Braccetto";RG;"Santa Croce Camerina";"14.460365014641228";"36.814313789536925";NULL;"1587553704"
"0";"14.4795387832";"0";NULL;"0";"di Pietro";Torre;deputazione;NULL;"Torre di Punta di Pietro o di Pietra; torre di Santa Croce; torre di Mezzo.";"Val di Noto";"http://gis.osservatorioturistico.sicilia.it/doc/foto/torri/";cattivo;pubblica;"http://gis.osservatorioturistico.sicilia.it/doc/foto/torri/ico/ico_torre di Pietro_RG.jpg";"138";"140";"Punta Secca";RG;"Santa Croce Camerina";"14.479538783217091";"36.799023418586810";NULL;"1587553704"
"0";"13.2817457482";"0";NULL;"0";"Punta Barcarello";Fortino;incerto;discreto;"\"Fortino\" di Punta Barcarello(originariamente Punta Vaccarella o Vaccarello\".";"Val di Mazara";"http://gis.osservatorioturistico.sicilia.it/doc/foto/torri/";discreto;pubblica;"http://gis.osservatorioturistico.sicilia.it/doc/foto/torri/ico/";"139";"141";"Punta Barcarello";PA;Palermo;"13.281745748156310";"38.210082343966180";"082053";"1587553704"
"0";"12.8145066573";"0";NULL;"0";Bennisti;Torre;privati;E;"o torre Bennistri. E' stata restaurata nel 2015.";"Val di Mazara";"http://gis.osservatorioturistico.sicilia.it/doc/foto/torri/Bennisti_TP.jpg";ottimo;pubblica;"http://gis.osservatorioturistico.sicilia.it/doc/foto/torri/ico/ico_Bennisti_TP.jpg";"140";"142";Scopello;TP;"Castellammare del Golfo";"12.814506657281520";"38.068299935551630";"081005";"1587553704"
"0";"12.8216223068";"0";NULL;"0";"Tonnara di Scopello";Torre;privati;NULL;NULL;"Val di Mazara";"http://gis.osservatorioturistico.sicilia.it/doc/foto/torri/tonnara_di_Scopello_TP.JPG";cattivo;privata;"http://gis.osservatorioturistico.sicilia.it/doc/foto/torri/ico/ico_tonnara_di_Scopello_TP.jpg";"141";"143";Scopello;TP;"Castellammare del Golfo";"12.821622306771218";"38.071476107840200";"081005";"1587553704"
"0";"12.6589852257";"0";NULL;"0";"Torre di Cofano";NULL;deputazione;E;"Torre di San Giovanni di Cofano.";"Val di Mazara";"http://gis.osservatorioturistico.sicilia.it/doc/foto/torri/torre_di_Cofano_TP.jpg";ottimo;pubblica;"http://gis.osservatorioturistico.sicilia.it/doc/foto/torri/ico/ico_torre_Cofano_TP.jpg";"142";"144";"Litorale Monte Cofano";TP;Custonaci;"12.658985225672252";"38.108798823663330";"081007";"1587553704"
"0";"12.4587013768";"0";NULL;"0";"San Teodoro B";Torre;privati;E;NULL;"Val di Mazara";"http://gis.osservatorioturistico.sicilia.it/doc/foto/torri/";buono;privata;"http://gis.osservatorioturistico.sicilia.it/doc/foto/torri/ico/ico_San Teodoro_ B_TP.jpg";"143";"145";"Capo San Teodoro";TP;Marsala;"12.458701376817912";"37.907142171241590";NULL;"1587553704"
"0";"12.4872547950";"0";NULL;"0";Lupa;Torre;privati;PRV;NULL;"Val di Mazara";"http://gis.osservatorioturistico.sicilia.it/doc/foto/torri/torre_Lupa_TP.jpg";cattivo;privata;"http://gis.osservatorioturistico.sicilia.it/doc/foto/torri/ico/ico_torre_Lupa_TP.jpg";"144";"146";"San Leonardo";TP;Marsala;"12.487254794966784";"37.875763545316690";"081011";"1587553704"
"0";"13.1234817126";"0";NULL;"0";"del Barone";Torre;privati;E;"Torre della Schirina (in Castellalferro); torre dei Preti.Totalmente ricostruiya";"Val di Mazara";"http://gis.osservatorioturistico.sicilia.it/doc/foto/torri/torre del Barone_AG.jpg";ottimo;privata;"http://gis.osservatorioturistico.sicilia.it/doc/foto/torri/ico/ico_torre del Barone_AG.jpg";"145";"147";"3 km da Sciacca_dir. sud-est";AG;Sciacca;"13.123481712569480";"37.495986293405630";"084041";"1587553704"
"0";"13.3249521740";"0";NULL;"0";Salsa;Torre;deputazione;PRV;"Marinata o Marinola";"Val di Mazzara";"http://gis.osservatorioturistico.sicilia.it/doc/foto/torri/torre_Salsa_AG.jpg";pessima;privata;"http://gis.osservatorioturistico.sicilia.it/doc/foto/torri/ico/ico_torre_Salsa_AG.jpg";"146";"149";"Punta di Marinata";AG;Siculiana;"13.324952174026890";"37.364527377937790";"084042";"1587553704"
